,City,Lat,Lng,Max Temp,Humidity,Cloudiness,Wind Speed,Country,Date
0,airai,-8.9266,125.4092,71.31,93,99,1.36,TL,1615268589
1,carnarvon,-24.8667,113.6333,84.2,74,99,12.66,AU,1615268573
2,caravelas,-17.7125,-39.2481,74.84,88,89,3.91,BR,1615268685
3,komsomolskiy,40.4272,71.7189,51.8,54,89,2.3,UZ,1615268562
4,kirakira,-10.4544,161.9205,83.79,70,91,2.24,SB,1615268665
5,mahebourg,-20.4081,57.7,82.4,78,40,5.75,MU,1615268570
6,punta arenas,-53.15,-70.9167,53.6,76,40,11.5,CL,1615268564
7,cabo san lucas,22.8909,-109.9124,64.99,82,1,8.05,MX,1615268257
8,busselton,-33.65,115.3333,84.99,48,12,4.0,AU,1615268561
9,rikitea,-23.1203,-134.9692,80.82,80,19,7.02,PF,1615268578
10,kudahuvadhoo,2.6708,72.8944,83.86,71,84,7.49,MV,1615268686
11,roebourne,-20.7833,117.1333,94.35,40,0,13.62,AU,1615268567
12,hobart,-42.8794,147.3294,66.2,39,75,12.66,AU,1615268560
13,mataura,-46.1927,168.8643,64.99,60,92,7.0,NZ,1615268556
14,cockburn town,21.4612,-71.1419,74.3,79,84,24.09,TC,1615268555
15,anloga,5.7947,0.8973,82.4,83,40,6.91,GH,1615268686
16,luwuk,-0.9516,122.7875,77.88,79,100,4.9,ID,1615268687
17,atuona,-9.8,-139.0333,79.3,77,92,14.88,PF,1615268565
18,greystones,53.1408,-6.0631,45.0,88,97,3.0,IE,1615268687
19,severo-kurilsk,50.6789,156.125,24.78,91,99,14.29,RU,1615268654
20,kavieng,-2.5744,150.7967,83.57,75,60,11.07,PG,1615268560
21,galveston,29.3669,-94.9669,63.0,82,1,11.5,US,1615268687
22,marawi,7.9986,124.2928,84.0,77,58,5.99,PH,1615268688
23,kapaa,22.0752,-159.319,72.0,88,90,23.02,US,1615268605
24,dikson,73.5069,80.5464,-11.7,88,100,6.64,RU,1615268573
25,castro,-24.7911,-50.0119,59.61,93,1,2.37,BR,1615268478
26,hambantota,6.1241,81.1185,86.0,79,20,8.05,LK,1615268560
27,yellowknife,62.456,-114.3525,-6.0,77,75,6.91,CA,1615268566
28,kamaishi,39.2667,141.8833,46.4,46,0,6.91,JP,1615268688
29,yangcun,39.3639,117.0603,60.01,47,0,8.95,CN,1615268688
30,albany,42.6001,-73.9662,34.0,44,70,3.27,US,1615268404
31,port elizabeth,-33.918,25.5701,59.0,88,20,1.14,ZA,1615268346
32,thompson,55.7435,-97.8558,14.0,67,40,5.75,CA,1615268602
33,portland,45.5234,-122.6762,43.0,75,90,11.5,US,1615268633
34,shaowu,27.3409,117.4831,65.75,66,92,3.4,CN,1615268689
35,jamestown,42.097,-79.2353,44.6,45,90,9.64,US,1615268586
36,qarayeri,40.7886,46.3066,37.4,75,20,6.91,AZ,1615268689
37,torbay,47.6666,-52.7314,28.99,80,90,12.66,CA,1615268558
38,hithadhoo,-0.6,73.0833,84.22,61,12,4.61,MV,1615268565
39,pevek,69.7008,170.3133,-15.21,90,100,5.68,RU,1615268604
40,salinopolis,-0.6136,-47.3561,77.22,90,100,8.97,BR,1615268576
41,tempe,33.4148,-111.9093,71.01,26,1,4.12,US,1615268690
42,saint-philippe,-21.3585,55.7679,86.0,65,0,8.05,RE,1615268557
43,arraial do cabo,-22.9661,-42.0278,75.06,83,100,5.14,BR,1615268557
44,pisco,-13.7,-76.2167,71.6,78,0,1.14,PE,1615268619
45,teguise,29.0605,-13.564,60.8,55,0,16.11,ES,1615268668
46,georgetown,5.4112,100.3354,93.2,49,20,6.91,MY,1615268590
47,novyy oskol,50.7631,37.8691,22.41,93,99,10.25,RU,1615268691
48,dum duma,27.5667,95.5667,78.8,50,75,9.22,IN,1615268691
49,faaborg,55.0951,10.2423,30.2,93,3,3.44,DK,1615268691
50,faanui,-16.4833,-151.75,83.07,75,98,16.58,PF,1615268654
51,saskylakh,71.9167,114.0833,-22.07,84,51,3.89,RU,1615268562
52,aklavik,68.2191,-135.0107,-4.0,77,0,10.36,CA,1615268572
53,provideniya,64.3833,-173.3,12.2,73,40,13.42,RU,1615268563
54,cidreira,-30.1811,-50.2056,72.21,81,58,3.91,BR,1615268577
55,aloleng,16.1307,119.7824,84.36,59,39,7.34,PH,1615268692
56,bambous virieux,-20.3428,57.7575,87.01,78,40,5.75,MU,1615268557
57,swan river,52.1058,-101.2676,33.8,75,78,11.5,CA,1615268692
58,sao joao da barra,-21.6403,-41.0511,72.91,91,100,4.43,BR,1615268578
59,vaini,-21.2,-175.2,78.8,61,40,13.8,TO,1615268568
60,barrow,71.2906,-156.7887,30.2,69,1,21.85,US,1615268574
61,hermanus,-34.4187,19.2345,63.0,66,100,5.01,ZA,1615268555
62,ketchikan,55.3422,-131.6461,35.6,100,1,1.57,US,1615268677
63,tilichiki,60.4667,166.1,-17.61,89,74,2.95,RU,1615268693
64,tiksi,71.6872,128.8694,-18.27,86,100,10.94,RU,1615268583
65,nikolskoye,59.7035,30.7861,3.99,85,20,6.71,RU,1615268604
66,rochelle,46.25,-1.0,32.0,93,14,2.3,FR,1615268693
67,cape town,-33.9258,18.4232,61.0,59,75,11.5,ZA,1615268390
68,ushuaia,-54.8,-68.3,53.6,62,75,11.5,AR,1615268479
69,plettenberg bay,-34.0527,23.3716,62.13,68,92,2.04,ZA,1615268624
70,qaanaaq,77.484,-69.3632,-5.93,66,86,5.19,GL,1615268597
71,lakatoro,-16.0999,167.4164,80.51,81,99,5.95,VU,1615268694
72,tasiilaq,65.6145,-37.6368,19.4,86,90,25.32,GL,1615268572
73,hasaki,35.7333,140.8333,55.99,71,75,8.05,JP,1615268577
74,bluff,-46.6,168.3333,64.99,60,87,7.0,NZ,1615268581
75,lithakia,37.7167,20.8333,51.8,93,40,4.61,GR,1615268449
76,lazaro cardenas,17.9583,-102.2,73.26,81,1,1.34,MX,1615268695
77,churapcha,62.0025,132.4325,3.47,92,99,7.14,RU,1615268695
78,klaksvik,62.2266,-6.589,44.6,100,90,16.11,FO,1615268573
79,ust-kuyga,70.0167,135.6,-10.66,87,99,4.79,RU,1615268695
80,roma,43.2128,-75.4557,34.0,51,90,3.44,US,1615268695
81,morant bay,17.8815,-76.4093,78.8,73,20,3.44,JM,1615268696
82,acarau,-2.8856,-40.12,77.76,87,16,9.37,BR,1615268571
83,clyde river,70.4692,-68.5914,-2.2,84,90,13.8,CA,1615268405
84,mopipi,-21.1833,24.8833,76.39,49,18,4.0,BW,1615268696
85,vanimo,-2.6741,141.3028,83.73,67,63,4.34,PG,1615268696
86,mkushi,-13.6202,29.3939,65.84,91,93,2.33,ZM,1615268696
87,boddam,57.4667,-1.7833,42.8,93,90,6.91,GB,1615268697
88,east london,-33.0153,27.9116,64.4,72,20,2.3,ZA,1615268556
89,tres arroyos,-38.3739,-60.2798,47.89,78,7,6.98,AR,1615268697
90,cuiluan,47.72,128.648,27.43,91,100,16.87,CN,1615268697
91,saint george,37.1041,-113.5841,62.6,16,1,11.5,US,1615268349
92,grindavik,63.8424,-22.4338,33.8,93,0,5.75,IS,1615268698
93,new norfolk,-42.7826,147.0587,64.99,47,100,3.0,AU,1615268565
94,hilo,19.7297,-155.09,69.8,88,90,4.61,US,1615268294
95,salcuta,44.25,23.4333,34.0,74,0,10.36,RO,1615268698
96,banff,51.1762,-115.5698,26.6,45,28,1.14,CA,1615268698
97,anuradhapura,8.3565,80.4173,89.17,53,4,9.35,LK,1615268699
98,grand gaube,-20.0064,57.6608,87.01,64,0,3.0,MU,1615268581
99,avarua,-21.2078,-159.775,80.6,78,40,8.05,CK,1615268554
100,byron bay,-28.65,153.6167,87.8,55,40,8.05,AU,1615268699
101,pemangkat,1.1667,108.9667,81.82,72,87,8.95,ID,1615268699
102,luderitz,-26.6481,15.1594,63.72,66,0,2.33,NA,1615268570
103,samarai,-10.6167,150.6667,81.46,76,91,6.85,PG,1615268700
104,petatlan,17.5167,-101.2667,72.91,61,14,3.2,MX,1615268700
105,teya,60.3778,92.6267,14.02,89,100,15.82,RU,1615268700
106,fortuna,40.5982,-124.1573,43.0,93,40,11.5,US,1615268610
107,axim,4.8699,-2.2405,80.17,85,100,10.07,GH,1615268701
108,tallahassee,30.4383,-84.2807,46.0,81,1,4.47,US,1615268701
109,krasnyy chikoy,50.3643,108.7512,36.46,81,24,1.92,RU,1615268701
110,saint andrews,34.0454,-81.1293,42.01,70,1,4.94,US,1615268701
111,geraldton,-28.7667,114.6,89.6,48,93,18.41,AU,1615268588
112,bardsir,29.9227,56.5743,60.8,21,0,18.41,IR,1615268702
113,constitucion,-35.3333,-72.4167,57.6,61,0,5.12,CL,1615268353
114,alta floresta,-9.8756,-56.0861,68.65,99,100,2.68,BR,1615268704
115,la ciotat,43.1748,5.6045,46.99,93,9,2.3,FR,1615268704
116,havre-saint-pierre,50.2334,-63.5986,10.4,92,1,6.91,CA,1615268612
117,tessalit,20.1986,1.0114,68.9,22,0,8.01,ML,1615268566
118,butaritari,3.0707,172.7902,81.19,79,31,11.18,KI,1615268609
119,ileza,61.0533,43.9002,-15.32,88,94,5.95,RU,1615268704
120,saurimo,-9.6608,20.3916,64.51,91,88,2.04,AO,1615268704
121,ribeira grande,38.5167,-28.7,60.96,89,72,7.47,PT,1615268580
122,talnakh,69.4865,88.3972,-11.4,88,98,10.11,RU,1615268556
123,vao,-22.6667,167.4833,75.11,73,5,14.94,NC,1615268602
124,floro,61.5996,5.0328,39.2,70,75,16.11,NO,1615268705
125,jimo,36.3897,120.4622,55.4,50,0,4.47,CN,1615268705
126,ancud,-41.8697,-73.8203,46.99,93,0,3.8,CL,1615268582
127,port alfred,-33.5906,26.891,66.0,78,100,1.01,ZA,1615268555
128,bengkulu,-3.8004,102.2655,84.43,58,74,7.4,ID,1615268580
129,kaitangata,-46.2817,169.8464,62.01,77,67,7.0,NZ,1615268573
130,sal rei,16.1833,-22.9167,66.2,72,75,20.71,CV,1615268706
131,tuktoyaktuk,69.4541,-133.0374,-20.2,69,1,8.05,CA,1615268600
132,mwinilunga,-11.7358,24.4293,63.36,96,100,4.0,ZM,1615268706
133,kahului,20.8947,-156.47,71.6,83,90,12.66,US,1615268558
134,alofi,-19.0595,-169.9187,80.6,69,69,10.36,NU,1615268667
135,narsaq,60.9167,-46.05,23.0,54,75,6.91,GL,1615268590
136,jalu,29.0331,21.5482,72.21,19,95,6.64,LY,1615268661
137,fort saint james,54.4333,-124.25,24.78,96,86,1.97,CA,1615268707
138,namatanai,-3.6667,152.4333,83.79,69,99,8.01,PG,1615268648
139,qui nhon,13.7667,109.2333,81.01,65,25,10.33,VN,1615268625
140,birao,10.2849,22.7882,74.98,18,0,6.73,CF,1615268707
141,pangoa,-12.1167,-73.0,68.65,96,100,1.59,PE,1615268708
142,khatanga,71.9667,102.5,-18.15,88,72,8.14,RU,1615268561
143,shenzhen,22.5455,114.0683,80.01,69,27,3.89,CN,1615268708
144,esperance,-33.8667,121.9,77.0,50,75,12.66,AU,1615268611
145,quatre cocos,-20.2078,57.7625,87.01,78,40,5.75,MU,1615268565
146,muros,42.7762,-9.0603,41.0,83,2,10.83,ES,1615268709
147,gambela,8.25,34.5833,91.31,26,40,0.6,ET,1615268709
148,pringsewu,-5.3582,104.9744,87.48,58,69,4.21,ID,1615268709
149,port keats,-14.25,129.55,88.43,62,74,8.37,AU,1615268709
150,puro,12.4841,123.3827,83.86,65,61,15.19,PH,1615268623
151,kyren,51.6828,102.1408,38.98,70,84,0.87,RU,1615268709
152,baykit,61.67,96.37,14.04,89,93,17.65,RU,1615268709
153,laredo,27.5064,-99.5075,66.2,72,90,16.11,US,1615268710
154,mindelo,16.8901,-24.9804,68.0,60,40,31.07,CV,1615268710
155,kloulklubed,7.0419,134.2556,77.0,88,90,10.36,PW,1615268650
156,decin,50.7822,14.2148,26.01,72,96,3.0,CZ,1615268710
157,dicabisagan,17.0818,122.4157,80.76,64,22,8.81,PH,1615268710
158,huarmey,-10.0681,-78.1522,72.21,83,98,4.63,PE,1615268711
159,tocopilla,-22.092,-70.1979,68.14,73,10,3.51,CL,1615268711
160,saldanha,-33.0117,17.9442,55.4,82,99,5.75,ZA,1615268592
161,inhambane,-23.865,35.3833,78.8,78,20,4.5,MZ,1615268658
162,vardo,70.3705,31.1107,15.8,73,20,13.8,NO,1615268650
163,asmar,35.0333,71.3581,65.8,27,13,6.38,AF,1615268711
164,cherskiy,68.75,161.3,-8.28,90,100,11.27,RU,1615268555
165,mocuba,-16.8392,36.9856,75.13,90,94,3.94,MZ,1615268712
166,basco,20.4487,121.9702,77.52,77,15,13.15,PH,1615268712
167,coquimbo,-29.9533,-71.3436,60.8,94,20,0.85,CL,1615268471
168,sao filipe,14.8961,-24.4956,67.73,77,35,17.65,CV,1615268595
169,ponta do sol,32.6667,-17.1,57.2,72,75,4.61,PT,1615268577
170,meulaboh,4.1363,96.1285,85.68,62,15,6.42,ID,1615268712
171,sao jose da coroa grande,-8.8978,-35.1478,77.65,81,34,6.53,BR,1615268713
172,san quintin,30.4833,-115.95,56.39,79,100,13.2,MX,1615268671
173,bethel,41.3712,-73.414,35.01,64,1,5.99,US,1615268549
174,la plata,-34.9215,-57.9545,61.0,87,13,1.99,AR,1615268713
175,midleton,51.9153,-8.1805,46.99,93,75,11.5,IE,1615268713
176,buraydah,26.326,43.975,64.4,45,20,9.22,SA,1615268614
177,mehamn,71.0357,27.8492,17.6,79,75,10.36,NO,1615268586
178,the pas,53.8251,-101.2541,23.0,63,1,9.22,CA,1615268603
179,berlevag,70.8578,29.0864,17.6,79,75,10.36,NO,1615268554
180,haines junction,60.7522,-137.5108,3.2,66,0,2.3,CA,1615268608
181,nanortalik,60.1432,-45.2371,24.71,95,100,9.06,GL,1615268667
182,manggar,-2.8833,108.2667,85.28,66,100,12.48,ID,1615268714
183,wanning,18.8003,110.3967,77.74,76,74,10.87,CN,1615268714
184,magaria,12.9983,8.9099,71.1,17,0,8.41,NE,1615268715
185,petropavlovsk-kamchatskiy,53.0452,158.6483,21.2,42,45,8.95,RU,1615268584
186,wanaka,-44.7,169.15,63.0,51,99,9.75,NZ,1615268715
187,del rio,29.3627,-100.8968,66.2,59,1,10.36,US,1615268581
188,chuy,-33.6971,-53.4616,66.07,87,55,5.37,UY,1615268577
189,puerto ayora,-0.7393,-90.3518,77.0,94,12,3.0,EC,1615268558
190,saint-georges,12.0564,-61.7485,77.0,83,20,9.22,GD,1615268716
191,lakes entrance,-37.8811,147.981,72.0,50,42,1.99,AU,1615268716
192,foshan,23.0268,113.1315,78.01,60,40,2.24,CN,1615268717
193,evensk,61.95,159.2333,-20.36,74,0,1.88,RU,1615268620
194,columbia,34.0007,-81.0348,42.01,70,1,4.45,US,1615268437
195,hokitika,-42.7167,170.9667,59.2,75,100,2.51,NZ,1615268717
196,strezhevoy,60.7333,77.5889,1.4,85,40,2.24,RU,1615268451
197,beringovskiy,63.05,179.3167,-19.01,84,92,4.76,RU,1615268656
198,kodiak,57.79,-152.4072,39.2,70,1,13.8,US,1615268451
199,ormara,25.2088,64.6357,73.18,58,0,5.19,PK,1615268718
200,edson,53.5835,-116.4356,26.6,93,1,3.44,CA,1615268703
201,touros,-5.1989,-35.4608,75.2,94,20,3.44,BR,1615268661
202,hami,42.8,93.45,56.12,34,46,10.85,CN,1615268328
203,chara,56.9064,118.2631,16.74,82,16,8.34,RU,1615268665
204,luanda,-8.8368,13.2343,78.8,89,40,3.44,AO,1615268529
205,diamantino,-14.4086,-56.4461,68.56,94,85,3.78,BR,1615268718
206,san cristobal,7.7669,-72.225,65.35,83,84,2.24,VE,1615268719
207,nome,64.5011,-165.4064,19.4,93,40,9.22,US,1615268719
208,wawa,9.9022,4.4192,74.25,89,53,4.25,NG,1615268719
209,seydi,39.4816,62.9137,58.96,43,100,12.15,TM,1615268719
210,muzhi,65.3667,64.6667,-19.93,85,73,2.66,RU,1615268720
211,bredasdorp,-34.5322,20.0403,55.4,76,100,4.61,ZA,1615268563
212,katsuura,35.1333,140.3,55.99,62,40,3.44,JP,1615268556
213,moose factory,51.2585,-80.6094,26.6,93,90,3.44,CA,1615268720
214,espanola,35.9911,-106.0806,51.8,28,1,5.75,US,1615268721
215,margate,51.3813,1.3862,42.01,77,91,3.0,GB,1615268670
216,conceicao do mato dentro,-19.0372,-43.425,67.37,89,99,1.54,BR,1615268721
217,nampula,-15.1165,39.2666,73.4,88,40,2.3,MZ,1615268721
218,richards bay,-28.783,32.0377,74.68,85,83,11.54,ZA,1615268594
219,qandala,11.472,49.8728,84.58,33,0,9.82,SO,1615268721
220,calama,-22.4667,-68.9333,50.0,46,0,11.5,CL,1615268722
221,salalah,17.0151,54.0924,84.2,26,0,1.14,OM,1615268275
222,carmen,18.6333,-91.8333,74.82,72,0,17.56,MX,1615268722
223,port blair,11.6667,92.75,85.3,62,0,12.8,IN,1615268703
224,makakilo city,21.3469,-158.0858,73.4,78,75,6.91,US,1615268619
225,moussoro,13.6408,16.4901,73.35,14,0,9.91,TD,1615268722
226,ugep,5.8086,8.0812,77.02,90,10,2.39,NG,1615268481
227,mount isa,-20.7333,139.5,95.0,31,59,8.05,AU,1615268585
228,novyy urengoy,66.0833,76.6333,-22.27,85,97,10.74,RU,1615268723
229,naze,28.3667,129.4833,68.0,83,75,13.8,JP,1615268723
230,vilhena,-12.7406,-60.1458,67.14,99,100,2.84,BR,1615268723
231,nantucket,41.2835,-70.0995,33.01,76,61,14.05,US,1615268723
232,karratha,-20.7377,116.8463,91.36,49,0,14.79,AU,1615268724
233,gao,16.6362,1.637,70.86,21,0,0.54,ML,1615268585
234,pacific grove,36.6177,-121.9166,51.8,62,75,5.75,US,1615268441
235,porbandar,21.6422,69.6093,82.4,61,0,5.75,IN,1615268724
236,le port,-20.9373,55.2919,86.0,62,75,3.44,RE,1615268427
237,agadez,19.75,10.25,73.29,17,31,9.78,NE,1615268724
238,mar del plata,-38.0023,-57.5575,61.0,61,6,4.0,AR,1615268490
239,goure,13.9835,10.2704,70.81,16,0,7.76,NE,1615268725
240,taoudenni,22.6783,-3.9836,62.28,30,0,6.64,ML,1615268725
241,tambopata,-12.7333,-69.1833,72.32,99,100,2.3,PE,1615268725
242,camabatela,-8.1881,15.375,62.78,99,68,3.83,AO,1615268725
243,ordu,40.9086,37.6845,37.4,100,0,1.14,TR,1615268725
244,wamba,8.9333,8.6,72.57,55,10,0.98,NG,1615268725
245,shimoda,34.6667,138.95,53.6,71,75,11.5,JP,1615268587
246,remontnoye,46.5614,43.6501,35.6,75,40,17.9,RU,1615268726
247,ust-tarka,55.5672,75.705,11.7,95,96,15.32,RU,1615268726
248,laguna,38.421,-121.4238,48.2,66,90,9.22,US,1615268665
249,lewisporte,49.2499,-55.0482,23.0,86,90,12.66,CA,1615268726
250,victoria,22.2855,114.1577,71.01,79,82,1.01,HK,1615268286
251,paraiso,9.8383,-83.8656,68.0,77,0,11.5,CR,1615268727
252,tabou,4.423,-7.3528,77.25,89,66,5.55,CI,1615268727
253,urucara,-2.5364,-57.76,73.54,97,100,2.17,BR,1615268727
254,atambua,-9.1061,124.8925,81.63,78,80,4.92,ID,1615268727
255,longyearbyen,78.2186,15.6401,24.8,50,75,11.5,SJ,1615268477
256,sitka,57.0531,-135.33,33.8,60,20,5.77,US,1615268571
257,lompoc,34.6391,-120.4579,44.6,81,1,5.64,US,1615268582
258,hailey,43.5196,-114.3153,35.6,51,90,10.36,US,1615268728
259,tuatapere,-46.1333,167.6833,64.99,60,100,7.0,NZ,1615268680
260,chiang kham,19.5233,100.3,82.4,54,0,3.44,TH,1615268728
261,port lincoln,-34.7333,135.8667,67.12,65,0,17.54,AU,1615268662
262,faya,18.3851,42.4509,64.4,63,0,4.61,SA,1615268611
263,burnie,-41.0667,145.9167,68.0,53,69,18.01,AU,1615268554
264,guerrero negro,27.9769,-114.0611,57.43,77,100,15.41,MX,1615268564
265,saint-joseph,-21.3667,55.6167,86.0,65,0,8.05,RE,1615268729
266,marsa matruh,31.3525,27.2453,62.6,45,0,16.11,EG,1615268729
267,taltal,-25.4,-70.4833,63.99,76,54,0.98,CL,1615268729
268,chumikan,54.7183,135.315,25.36,92,100,8.08,RU,1615268729
269,codrington,-38.2667,141.9667,62.2,59,38,10.76,AU,1615268589
270,leshukonskoye,64.8989,45.7622,-20.85,86,20,2.59,RU,1615268730
271,henties bay,-22.116,14.2845,63.77,83,0,9.89,NA,1615268730
272,kendari,-3.945,122.4989,82.83,81,93,3.27,ID,1615268584
273,eureka,40.8021,-124.1637,44.01,83,57,5.99,US,1615268462
274,solnechnyy,50.7214,136.6319,25.34,95,100,3.24,RU,1615268731
275,eyl,7.9803,49.8164,81.05,64,89,14.56,SO,1615268731
276,vaitape,-16.5167,-151.75,83.08,75,100,16.49,PF,1615268731
277,khandyga,62.6667,135.6,3.09,91,100,3.58,RU,1615268731
278,rio grande,-32.035,-52.0986,66.0,96,76,8.05,BR,1615268664
279,madimba,-10.4,40.3333,79.16,85,100,4.59,TZ,1615268672
280,pangnirtung,66.1451,-65.7125,14.86,92,100,1.14,CA,1615268570
281,kirkwood,38.5834,-90.4068,57.2,38,75,10.36,US,1615268449
282,jumla,29.2747,82.1838,60.3,28,0,4.56,NP,1615268732
283,port hedland,-20.3167,118.5667,93.2,59,0,16.11,AU,1615268732
284,miri,4.4148,114.0089,84.2,79,40,8.05,MY,1615268676
285,babstovo,48.1167,132.4833,29.37,98,100,4.9,RU,1615268733
286,lata,40.1629,-8.3327,48.99,100,0,4.61,PT,1615268733
287,vestmannaeyjar,63.4427,-20.2734,37.67,87,100,10.45,IS,1615268611
288,praia da vitoria,38.7333,-27.0667,55.0,100,75,5.08,PT,1615268733
289,mao,39.8885,4.2658,51.8,82,20,17.27,ES,1615268733
290,hohhot,40.8106,111.6522,51.8,46,50,4.47,CN,1615268733
291,lang son,21.8333,106.7333,77.07,67,94,7.67,VN,1615268734
292,rayong,12.8333,101.4333,93.0,99,86,5.26,TH,1615268734
293,besancon,47.2488,6.0182,30.2,80,0,3.44,FR,1615268734
294,kenai,60.5544,-151.2583,21.0,63,1,3.44,US,1615268734
295,deputatskiy,69.3,139.9,-13.18,87,84,15.66,RU,1615268734
296,hobyo,5.3505,48.5268,82.2,66,81,17.11,SO,1615268735
297,champerico,14.3,-91.9167,79.68,73,85,2.19,GT,1615268735
298,piranhas,-16.4269,-51.8222,68.11,95,100,3.2,BR,1615268735
299,kabalo,-6.05,26.9167,67.95,92,100,1.66,CD,1615268735
300,chokurdakh,70.6333,147.9167,-17.88,86,100,17.72,RU,1615268562
301,tarko-sale,64.9225,77.785,-17.86,86,92,13.22,RU,1615268655
302,emba,48.8264,58.1442,24.91,97,100,11.36,KZ,1615268736
303,requena,39.4883,-1.1004,50.0,84,74,3.15,ES,1615268736
304,maroantsetra,-15.4333,49.7333,83.07,67,83,0.96,MG,1615268736
305,yamada,39.4667,141.95,47.32,53,0,13.04,JP,1615268736
306,pontes e lacerda,-15.2261,-59.3353,70.05,89,4,1.95,BR,1615268737
307,sabang,5.8933,95.3214,82.72,76,1,18.88,ID,1615268591
308,diplo,24.4667,69.584,90.25,19,0,7.76,PK,1615268737
309,syracuse,37.0881,15.2792,48.99,100,10,4.61,IT,1615268737
310,mahibadhoo,3.7833,72.9667,84.22,70,35,9.01,MV,1615268680
311,olafsvik,64.8945,-23.7142,35.8,83,50,7.54,IS,1615268663
312,road town,18.4167,-64.6167,77.0,90,0,5.99,VG,1615268738
313,sahuaripa,29.05,-109.2333,65.64,27,90,4.18,MX,1615268738
314,fengcheng,40.4536,124.0717,51.39,46,0,0.92,CN,1615268739
315,padang,-0.9492,100.3543,86.0,74,20,8.05,ID,1615268598
316,rocha,-34.4833,-54.3333,62.65,94,0,2.17,UY,1615268726
317,dingle,10.9995,122.6711,85.55,63,38,16.33,PH,1615268589
318,los llanos de aridane,28.6585,-17.9182,62.6,77,20,16.11,ES,1615268739
319,sena madureira,-9.0656,-68.6569,72.88,88,95,0.56,BR,1615268740
320,kualakapuas,-3.0091,114.3876,75.2,94,40,3.44,ID,1615268740
321,sarahan,31.5167,77.8,54.86,39,0,2.1,IN,1615268740
322,baghdad,33.3406,44.4009,57.2,58,0,4.61,IQ,1615268740
323,ahipara,-35.1667,173.1667,65.48,60,54,4.83,NZ,1615268741
324,gizo,-8.103,156.8419,84.09,71,75,1.77,SB,1615268676
325,anori,-3.7728,-61.6442,72.63,98,86,1.72,BR,1615268741
326,port-cartier,50.0334,-66.8654,12.99,85,1,4.61,CA,1615268741
327,igarka,67.4667,86.5833,-3.24,91,100,13.58,RU,1615268577
328,pitimbu,-7.4706,-34.8086,75.2,100,20,3.44,BR,1615268656
329,puerto escondido,15.85,-97.0667,78.8,78,1,4.43,MX,1615268741
330,goderich,43.7501,-81.7165,37.4,81,59,4.61,CA,1615268703
331,zambrow,52.9855,22.2432,25.0,82,67,3.76,PL,1615268742
332,ilulissat,69.2167,-51.1,15.8,73,90,5.75,GL,1615268611
333,zheleznodorozhnyy,55.7503,38.0042,6.8,85,0,8.95,RU,1615268742
334,grabs,47.1825,9.4439,27.0,90,2,3.78,CH,1615268742
335,chon daen,16.1895,100.8596,98.01,51,20,4.61,TH,1615268742
336,phuket,8.0,98.25,89.6,45,0,10.36,TH,1615268743
337,ostrovnoy,68.0531,39.5131,9.55,90,100,14.23,RU,1615268743
338,gimli,50.6336,-96.9907,42.8,70,98,8.05,CA,1615268743
339,upernavik,72.7868,-56.1549,3.49,85,100,4.36,GL,1615268562
340,nuevitas,21.5453,-77.2644,69.8,64,1,13.8,CU,1615268643
341,chapais,49.7834,-74.8492,17.6,93,90,6.91,CA,1615268744
342,norman wells,65.282,-126.8329,-14.8,76,1,4.61,CA,1615268583
343,revda,56.801,59.9303,19.4,86,0,7.43,RU,1615268744
344,bani walid,31.7566,13.9942,55.13,85,72,9.01,LY,1615268744
345,lebu,-37.6167,-73.65,54.39,87,0,7.74,CL,1615268591
346,kargasok,59.0556,80.8572,14.14,94,99,12.24,RU,1615268744
347,mecca,21.4267,39.8261,82.71,35,0,1.72,SA,1615268745
348,lasa,46.6166,10.7002,37.99,59,59,1.01,IT,1615268660
349,labuhan,-6.8844,112.2051,82.74,78,87,14.92,ID,1615268745
350,monte patria,-30.6919,-70.9467,62.19,80,0,1.12,CL,1615268745
351,portales,34.1862,-103.3344,57.2,47,1,12.66,US,1615268716
352,darapidap,17.2131,120.4114,84.72,56,10,7.47,PH,1615268746
353,shingu,33.7333,135.9833,59.0,63,75,4.61,JP,1615268606
354,okoneshnikovo,54.8377,75.0834,11.89,95,80,15.7,RU,1615268746
355,svobodnyy,51.4,128.1333,27.99,91,24,23.09,RU,1615268746
356,neka,36.6508,53.299,48.2,93,90,6.91,IR,1615268747
357,celestun,20.8667,-90.4,70.61,80,0,15.52,MX,1615268747
358,hudiksvall,61.729,17.1036,27.0,76,64,5.55,SE,1615268747
359,manta,-0.95,-80.7333,75.2,88,90,4.61,EC,1615268747
360,la motte-servolex,45.5942,5.8758,41.0,87,75,10.36,FR,1615268747
361,fairbanks,64.8378,-147.7164,21.0,92,1,2.13,US,1615268626
362,dinga,32.6398,73.722,71.6,46,0,9.22,PK,1615268748
363,barcelos,41.5388,-8.6151,48.0,66,0,10.36,PT,1615268614
364,kimbe,-5.5502,150.1429,84.43,72,99,4.29,PG,1615268748
365,tazmalt,36.3868,4.3989,47.62,83,100,2.42,DZ,1615268748
366,souillac,-20.5167,57.5167,82.4,78,40,5.75,MU,1615268581
367,balotra,25.8333,72.2333,87.76,21,0,9.44,IN,1615268748
368,banda aceh,5.5577,95.3222,88.03,59,1,12.5,ID,1615268748
369,bima,-8.4667,118.7167,82.71,81,39,1.39,ID,1615268749
370,bonavista,48.6499,-53.1147,27.0,86,87,4.61,CA,1615268674
371,flinders,-34.5833,150.8552,71.01,78,41,1.01,AU,1615268567
372,mount gambier,-37.8333,140.7667,69.8,49,40,11.5,AU,1615268622
373,rusape,-18.5278,32.1284,66.9,76,2,4.52,ZW,1615268749
374,woodward,36.4337,-99.3904,59.0,62,1,25.32,US,1615268749
375,coahuayana,18.7333,-103.6833,70.29,61,0,2.68,MX,1615268651
376,kyshtovka,56.555,76.6271,10.35,95,100,14.27,RU,1615268749
377,lyubech,51.7026,30.6569,17.31,95,37,8.37,UA,1615268749
378,hakkari,37.5833,44.1667,24.8,80,20,6.91,TR,1615268649
379,vestmanna,62.1564,-7.1664,44.6,100,90,16.11,FO,1615268750
380,hervey bay,-25.2986,152.8535,84.99,45,3,14.97,AU,1615268662
381,te anau,-45.4167,167.7167,58.17,59,100,7.99,NZ,1615268608
382,san jose,37.3394,-121.895,50.0,57,20,8.05,US,1615268722
383,beipiao,41.7919,120.7792,54.54,35,0,12.71,CN,1615268750
384,progreso,21.2833,-89.6667,70.0,78,40,9.22,MX,1615268750
385,innisfail,-17.5333,146.0333,80.26,78,30,8.34,AU,1615268702
386,sorland,67.667,12.6934,26.6,74,20,4.61,NO,1615268750
387,cukai,4.25,103.4167,87.8,66,40,10.36,MY,1615268750
388,upata,8.0086,-62.3989,73.99,92,91,5.01,VE,1615268751
389,fare,-16.7,-151.0167,83.44,72,100,16.4,PF,1615268678
390,ayan,56.45,138.1667,18.88,90,19,3.56,RU,1615268751
391,valley city,46.9233,-98.0032,42.8,81,1,14.97,US,1615268751
392,jasper,37.2001,-94.3502,55.4,41,1,8.05,US,1615268702
393,the valley,18.217,-63.0578,77.0,78,20,9.22,AI,1615268567
394,batagay-alyta,67.8006,130.4114,-6.56,84,100,3.09,RU,1615268607
395,qaqortoq,60.7167,-46.0333,23.0,54,75,6.91,GL,1615268752
396,isangel,-19.55,169.2667,84.2,70,20,5.75,VU,1615268752
397,ballina,-28.8667,153.5667,89.6,55,40,8.05,AU,1615268658
398,ponta delgada,37.7333,-25.6667,51.8,93,20,4.61,PT,1615268753
399,koygorodok,60.445,50.9968,-10.23,88,91,6.46,RU,1615268753
400,los angeles,34.0522,-118.2437,55.4,62,1,1.34,US,1615268685
401,kaeo,-35.1,173.7833,68.0,70,84,3.0,NZ,1615268668
402,cairns,-16.9167,145.7667,87.01,62,40,11.5,AU,1615268550
403,neuquen,-38.9516,-68.0591,66.2,45,19,2.3,AR,1615268640
404,pacasmayo,-7.4006,-79.5714,74.62,75,100,5.39,PE,1615268754
405,batsfjord,70.6345,29.7185,15.8,73,20,13.8,NO,1615268754
406,shunyi,40.125,116.6453,55.4,35,12,2.24,CN,1615268618
407,peniche,39.3558,-9.3811,50.0,88,0,1.01,PT,1615268667
408,ishikari,43.2397,141.3539,41.0,56,20,14.97,JP,1615268754
409,banugao,14.7333,121.6333,80.73,71,63,13.06,PH,1615268755
410,ojinaga,29.5667,-104.4167,66.2,34,1,10.36,MX,1615268755
411,mackenzie,55.2999,-123.1698,23.0,86,75,2.3,CA,1615268755
412,leningradskiy,69.3833,178.4167,-15.3,85,100,1.34,RU,1615268610
413,ouallam,14.3188,2.0866,82.44,14,39,9.26,NE,1615268755
414,zhigansk,66.7697,123.3711,-0.54,92,99,14.29,RU,1615268755
415,anderson,34.5334,-82.6499,42.8,52,1,4.12,US,1615268724
416,mareeba,-17.0,145.4333,87.01,62,75,9.22,AU,1615268756
417,quzhou,28.9594,118.8686,62.76,67,59,3.04,CN,1615268756
418,troyes,48.3333,4.0833,30.2,80,100,5.75,FR,1615268756
419,firovo,57.4814,33.7021,0.73,91,60,5.01,RU,1615268756
420,salto,-31.3833,-57.9667,66.99,91,0,1.99,UY,1615268549
421,lake city,30.1897,-82.6393,44.01,75,1,4.12,US,1615268534
422,beruwala,6.4788,79.9828,89.47,53,0,4.68,LK,1615268757
423,kaifeng,34.7911,114.3483,59.0,51,1,4.47,CN,1615268757
424,pangkalanbuun,-2.6833,111.6167,79.92,80,99,3.44,ID,1615268757
425,okakarara,-20.5833,17.4333,67.95,33,30,5.84,NA,1615268757
426,xining,36.6167,101.7667,49.17,41,50,2.82,CN,1615268758
427,dukat,62.55,155.55,-14.24,83,2,2.51,RU,1615268758
428,fatezh,52.0891,35.8632,19.4,73,75,11.18,RU,1615268758
429,raga,8.4596,25.678,78.94,18,0,2.91,SS,1615268758
430,podyuga,61.095,40.8647,-18.62,86,39,5.79,RU,1615268759
431,auly,48.5271,34.4949,26.6,74,40,17.9,UA,1615268759
432,tangshan,39.6333,118.1833,59.43,35,0,5.93,CN,1615268759
433,camocim,-2.9022,-40.8411,76.51,90,100,7.92,BR,1615268759
434,rivera,-30.9053,-55.5508,63.36,86,24,4.45,UY,1615268759
435,kavaratti,10.5669,72.642,83.5,69,64,8.23,IN,1615268669
436,amahai,-3.3333,128.9167,85.64,64,27,4.16,ID,1615268760
437,monrovia,6.3005,-10.7969,75.2,94,40,6.64,LR,1615268760
438,saint-raymond,45.467,-73.6095,28.0,50,100,1.14,CA,1615268760
439,antofagasta,-23.65,-70.4,66.2,82,0,2.3,CL,1615268675
440,itarema,-2.9248,-39.9167,77.47,87,10,8.46,BR,1615268761
441,trindade,-16.6494,-49.4889,69.8,94,75,2.3,BR,1615268761
442,laureles,26.1092,-97.4941,66.99,94,40,6.91,US,1615268761
443,najran,17.4924,44.1277,66.2,30,0,5.73,SA,1615268762
444,mbandaka,0.0487,18.2603,73.49,75,85,3.42,CD,1615268762
445,logan lake,50.4998,-120.8025,35.6,64,1,2.62,CA,1615268762
446,nuuk,64.1835,-51.7216,23.0,93,90,6.91,GL,1615268590
447,srednekolymsk,67.45,153.6833,-6.18,89,100,15.1,RU,1615268597
448,detchino,54.8092,36.3075,6.8,85,0,8.95,RU,1615268763
449,bulgan,48.8125,103.5347,44.31,43,24,8.01,MN,1615268763
450,colares,38.7992,-9.4469,53.01,88,0,14.14,PT,1615268624
451,ust-maya,60.4167,134.5333,14.31,94,100,5.21,RU,1615268763
452,kurdzhinovo,43.9884,40.9552,31.08,89,0,2.39,RU,1615268763
453,cayenne,4.9333,-52.3333,80.01,83,75,9.22,GF,1615268764
454,sibolga,1.7427,98.7792,86.52,61,88,6.15,ID,1615268764
455,bathsheba,13.2167,-59.5167,77.0,65,20,18.41,BB,1615268764
456,lavrentiya,65.5833,-171.0,7.32,94,31,8.57,RU,1615268764
457,avera,33.194,-82.5271,39.2,70,1,5.75,US,1615268765
458,kidal,18.4411,1.4078,72.01,21,0,8.16,ML,1615268657
459,koumac,-20.5667,164.2833,79.92,73,50,7.02,NC,1615268765
460,lagoa,39.05,-27.9833,59.41,93,84,13.15,PT,1615268765
461,koshurnikovo,54.1667,93.3,24.96,90,100,8.25,RU,1615268765
462,kirovskiy,45.0917,133.5136,37.6,81,81,15.55,RU,1615268766
463,manaure,11.7751,-72.4445,77.07,80,100,12.19,CO,1615268661
464,sehithwa,-20.4667,22.7167,72.91,62,45,5.75,BW,1615268766
465,congonhas,-20.4997,-43.8578,64.78,94,100,3.29,BR,1615268766
466,bairiki,1.3292,172.9752,84.2,70,20,8.05,KI,1615268767
467,tymovskoye,50.8456,142.655,30.11,96,97,10.67,RU,1615268767
468,adrar,20.5022,-10.0711,57.33,54,0,13.42,MR,1615268662
469,sheltozero,61.3667,35.3667,-12.98,90,100,7.25,RU,1615268767
470,havelock,34.8791,-76.9013,43.0,86,1,3.6,US,1615268767
471,gamba,-2.65,10.0,77.77,88,95,2.93,GA,1615268767
472,erenhot,43.6475,111.9767,46.02,50,21,4.56,CN,1615268768
473,pinerovka,51.562,43.0689,14.2,95,32,4.05,RU,1615268768
474,broken hill,-31.95,141.4333,86.0,26,69,14.97,AU,1615268674
475,lena,43.1,-5.7333,46.0,81,87,1.61,ES,1615268768
476,anito,12.4497,125.2886,80.83,72,80,11.9,PH,1615268768
477,simplicio mendes,-7.8539,-41.9103,70.79,91,75,1.95,BR,1615268769
478,nisia floresta,-6.0911,-35.2086,77.0,88,20,3.44,BR,1615268769
479,cedar city,37.6775,-113.0619,51.8,17,1,29.93,US,1615268769
480,kutum,14.2,24.6667,67.01,18,0,6.06,SD,1615268663
481,tooele,40.5308,-112.2983,48.0,66,1,6.91,US,1615268770
482,daru,-9.0763,143.2092,82.2,83,80,9.93,PG,1615268587
483,dandong,40.1292,124.3947,49.82,49,0,2.59,CN,1615268770
484,namibe,-15.1961,12.1522,73.09,78,40,1.07,AO,1615268770
485,maceio,-9.6658,-35.7353,73.4,94,20,3.44,BR,1615268542
486,la trinidad,16.455,120.5875,75.85,50,57,4.41,PH,1615268548
487,kamenka,51.3223,42.7678,21.0,94,29,3.69,RU,1615268771
488,gushikawa,26.3544,127.8686,75.2,73,40,8.05,JP,1615268771
489,kang,-23.6752,22.7876,72.97,55,71,9.28,BW,1615268771
490,dudinka,69.4058,86.1778,-15.74,88,99,9.91,RU,1615268772
491,glenwood springs,39.5505,-107.3248,36.0,59,1,12.66,US,1615268770
492,wiarton,44.7407,-81.1332,35.6,87,40,4.61,CA,1615268772
493,saint-augustin,51.226,-58.6502,8.38,92,0,5.86,CA,1615268667
494,tual,-5.6667,132.75,83.64,73,100,15.82,ID,1615268772
495,clinton,42.587,-82.9199,51.8,66,1,5.75,US,1615268772
496,krasnyy oktyabr,56.1167,38.8833,1.49,92,77,6.69,RU,1615268773
497,brae,60.3964,-1.353,42.8,87,90,16.11,GB,1615268773
498,imbituba,-28.24,-48.6703,71.6,94,75,3.44,BR,1615268773
499,la playa,18.2875,-67.1869,75.0,96,0,12.12,PR,1615268774
500,andros town,24.7,-77.7667,69.8,43,75,13.8,BS,1615268712
501,ponoka,52.6768,-113.5815,23.0,100,100,4.61,CA,1615268703
502,nouadhibou,20.931,-17.0347,62.01,81,0,24.4,MR,1615268774
503,dabat,12.9842,37.765,65.77,29,6,3.62,ET,1615268774
504,les cayes,18.2,-73.75,74.16,83,7,10.71,HT,1615268775
505,ambulu,-8.345,113.6058,84.29,73,31,8.48,ID,1615268775
506,pingliang,35.5392,106.6861,52.0,32,0,3.0,CN,1615268775
507,bure,10.7,37.0667,74.32,27,16,2.98,ET,1615268775
508,machico,32.7,-16.7667,57.2,72,75,4.61,PT,1615268776
509,egvekinot,66.3167,-179.1667,-32.08,88,59,2.77,RU,1615268587
510,vila franca do campo,37.7167,-25.4333,51.8,93,20,4.61,PT,1615268776
511,namikupa,-10.8333,39.6,75.83,91,99,0.87,TZ,1615268777
512,harper,4.375,-7.7169,78.1,86,46,6.51,LR,1615268777
513,mangrul pir,20.3167,77.35,94.95,13,0,8.93,IN,1615268777
514,phangnga,8.4509,98.5298,97.0,45,0,10.36,TH,1615268777
515,vila velha,-20.3297,-40.2925,72.0,100,0,2.3,BR,1615268610
516,cumberland,35.0502,-78.8664,43.0,60,1,3.44,US,1615268661
517,mizdah,31.4451,12.9801,50.09,91,0,2.17,LY,1615268778
518,cananea,30.95,-110.3,62.01,31,100,3.0,MX,1615268778
519,chenghai,23.4632,116.768,73.4,60,20,6.71,CN,1615268779
520,kruisfontein,-34.0033,24.7314,60.01,85,99,3.89,ZA,1615268573
521,iqaluit,63.7506,-68.5145,14.0,79,75,3.44,CA,1615268618
522,bhuj,23.2667,69.6667,90.09,22,0,5.73,IN,1615268654
523,dombarovskiy,50.7587,59.5386,20.05,93,66,16.73,RU,1615268779
524,hun,29.1268,15.9477,59.16,60,42,7.72,LY,1615268779
525,yantal,56.8471,105.2542,29.07,95,100,14.45,RU,1615268779
526,beloha,-25.1667,45.05,80.19,60,0,6.38,MG,1615268780
527,fukue,32.6881,128.8419,55.4,58,75,11.5,JP,1615268780
528,moron,-34.6534,-58.6198,64.99,84,0,5.01,AR,1615268780
529,hamilton,39.1834,-84.5333,48.0,49,40,5.75,US,1615268396
530,luebo,-5.35,21.4167,70.88,89,99,1.52,CD,1615268781
531,anadyr,64.75,177.4833,-22.0,69,20,6.71,RU,1615268781
532,steinbach,50.1667,8.5667,41.0,86,20,5.75,DE,1615268781
533,mednogorsk,51.4128,57.595,21.07,97,100,13.87,RU,1615268781
534,wewak,-3.5534,143.6268,82.63,73,100,7.02,PG,1615268781
535,fiumicino,41.7675,12.2291,50.0,93,75,9.22,IT,1615268782
536,joue-les-tours,47.3522,0.6691,32.0,86,42,2.3,FR,1615268782
537,port macquarie,-31.4333,152.9167,69.8,78,90,11.5,AU,1615268604
538,khammam,17.25,80.15,93.65,28,2,10.29,IN,1615268782
539,kununurra,-15.7667,128.7333,93.2,59,63,5.75,AU,1615268782
540,ust-tsilma,65.441,52.1498,-18.02,87,99,4.7,RU,1615268783
541,terre haute,39.4667,-87.4139,51.01,53,1,6.91,US,1615268783
542,chabahar,25.2919,60.643,75.09,57,0,4.41,IR,1615268783
543,zhaotong,27.3167,103.7167,56.82,54,91,2.19,CN,1615268783
544,belyy yar,53.6039,91.3903,35.6,27,0,20.13,RU,1615268599
545,pestovo,58.5938,35.8024,-7.24,90,77,5.84,RU,1615268784
546,hovd,48.0056,91.6419,43.72,45,39,6.33,MN,1615268784
547,bay roberts,47.5999,-53.2648,26.01,76,98,3.0,CA,1615268784
548,bama,11.5221,13.6856,67.75,25,0,1.03,NG,1615268778
549,vila,42.0304,-8.1588,33.01,89,9,3.76,PT,1615268785
550,panacan,9.2463,118.4082,87.8,66,20,11.5,PH,1615268785
551,chimore,-16.9833,-65.1333,69.8,91,94,1.52,BO,1615268785
552,maralal,1.0968,36.698,68.88,42,36,9.08,KE,1615268785
553,rognan,67.0953,15.3878,26.01,74,20,20.71,NO,1615268786
554,thinadhoo,0.5333,72.9333,83.88,66,10,4.79,MV,1615268660
555,killybegs,54.6333,-8.45,45.0,94,99,7.0,IE,1615268786
556,tabligbo,6.5833,1.5,82.4,83,40,6.91,TG,1615268786
557,devils lake,48.1128,-98.8651,44.01,81,1,11.5,US,1615268732
558,lucea,18.451,-78.1736,75.99,83,75,13.8,JM,1615268786
559,urambo,-5.0667,32.05,68.18,88,100,1.36,TZ,1615268787
560,davila,18.4726,120.5763,87.8,58,20,11.5,PH,1615268598
561,joensuu,62.6012,29.7632,-11.2,84,0,3.44,FI,1615268787
562,charcas,23.1333,-101.1167,49.68,85,17,9.42,MX,1615268787
563,navrongo,10.8956,-1.0921,81.7,42,51,6.15,GH,1615268588
564,kaka,37.3482,59.6143,62.22,32,94,1.86,TM,1615268787
